$GPGGA,170553.524,5427.933,N,05035.421,E,1,12,1.0,0.0,M,0.0,M,,*61
$GPGSA,A,3,01,02,03,04,05,06,07,08,09,10,11,12,1.0,1.0,1.0*30
$GPRMC,170553.524,A,5427.933,N,05035.421,E,6255517.4,065.1,250625,000.0,W*72
$GPGGA,170554.524,5608.845,N,10235.690,E,1,12,1.0,0.0,M,0.0,M,,*67
$GPGSA,A,3,01,02,03,04,05,06,07,08,09,10,11,12,1.0,1.0,1.0*30
$GPRMC,170554.524,A,5608.845,N,10235.690,E,2231962.0,342.1,250625,000.0,W*7E
$GPGGA,170555.524,6547.215,N,09451.718,E,1,12,1.0,0.0,M,0.0,M,,*6F
$GPGSA,A,3,01,02,03,04,05,06,07,08,09,10,11,12,1.0,1.0,1.0*30
$GPRMC,170555.524,A,6547.215,N,09451.718,E,3688811.6,280.6,250625,000.0,W*7A
$GPGGA,170556.524,6322.437,N,05447.500,E,1,12,1.0,0.0,M,0.0,M,,*6F
$GPGSA,A,3,01,02,03,04,05,06,07,08,09,10,11,12,1.0,1.0,1.0*30
$GPRMC,170556.524,A,6322.437,N,05447.500,E,6373288.5,253.9,250625,000.0,W*76
$GPGGA,170557.524,4547.964,N,01205.110,E,1,12,1.0,0.0,M,0.0,M,,*63
$GPGSA,A,3,01,02,03,04,05,06,07,08,09,10,11,12,1.0,1.0,1.0*30
$GPRMC,170557.524,A,4547.964,N,01205.110,E,5723320.1,196.5,250625,000.0,W*79
$GPGGA,170558.524,2005.764,N,00421.139,E,1,12,1.0,0.0,M,0.0,M,,*6D
$GPGSA,A,3,01,02,03,04,05,06,07,08,09,10,11,12,1.0,1.0,1.0*30
$GPRMC,170558.524,A,2005.764,N,00421.139,E,19328854.1,010.6,250625,000.0,W*41
$GPGGA,170559.524,6752.419,N,15458.994,E,1,12,1.0,0.0,M,0.0,M,,*61
$GPGSA,A,3,01,02,03,04,05,06,07,08,09,10,11,12,1.0,1.0,1.0*30
$GPRMC,170559.524,A,6752.419,N,15458.994,E,3661157.4,320.8,250625,000.0,W*7F
$GPGGA,170600.524,7613.581,N,10422.087,E,1,12,1.0,0.0,M,0.0,M,,*68
$GPGSA,A,3,01,02,03,04,05,06,07,08,09,10,11,12,1.0,1.0,1.0*30
$GPRMC,170600.524,A,7613.581,N,10422.087,E,3591895.9,278.9,250625,000.0,W*7D
$GPGGA,170601.524,7015.478,N,04736.112,E,1,12,1.0,0.0,M,0.0,M,,*60
$GPGSA,A,3,01,02,03,04,05,06,07,08,09,10,11,12,1.0,1.0,1.0*30
$GPRMC,170601.524,A,7015.478,N,04736.112,E,8168662.0,284.8,250625,000.0,W*71
$GPGGA,170602.524,5248.477,N,03058.415,W,1,12,1.0,0.0,M,0.0,M,,*7C
$GPGSA,A,3,01,02,03,04,05,06,07,08,09,10,11,12,1.0,1.0,1.0*30
$GPRMC,170602.524,A,5248.477,N,03058.415,W,4758933.2,226.4,250625,000.0,W*69
$GPGGA,170603.524,3536.529,N,05028.890,W,1,12,1.0,0.0,M,0.0,M,,*7F
$GPGSA,A,3,01,02,03,04,05,06,07,08,09,10,11,12,1.0,1.0,1.0*30
$GPRMC,170603.524,A,3536.529,N,05028.890,W,10229966.8,196.3,250625,000.0,W*59
$GPGGA,170604.524,1018.799,S,06236.482,W,1,12,1.0,0.0,M,0.0,M,,*66
$GPGSA,A,3,01,02,03,04,05,06,07,08,09,10,11,12,1.0,1.0,1.0*30
$GPRMC,170604.524,A,1018.799,S,06236.482,W,19055368.4,105.9,250625,000.0,W*48
$GPGGA,170605.524,1557.618,S,02825.732,E,1,12,1.0,0.0,M,0.0,M,,*77
$GPGSA,A,3,01,02,03,04,05,06,07,08,09,10,11,12,1.0,1.0,1.0*30
$GPRMC,170605.524,A,1557.618,S,02825.732,E,12535337.4,095.0,250625,000.0,W*5A
$GPGGA,170606.524,1233.192,S,08821.514,E,1,12,1.0,0.0,M,0.0,M,,*7C
$GPGSA,A,3,01,02,03,04,05,06,07,08,09,10,11,12,1.0,1.0,1.0*30
$GPRMC,170606.524,A,1233.192,S,08821.514,E,7629389.7,065.0,250625,000.0,W*62
$GPGGA,170607.524,0330.982,N,11959.581,E,1,12,1.0,0.0,M,0.0,M,,*60
$GPGSA,A,3,01,02,03,04,05,06,07,08,09,10,11,12,1.0,1.0,1.0*30
$GPRMC,170607.524,A,0330.982,N,11959.581,E,8271376.3,019.0,250625,000.0,W*77
$GPGGA,170608.524,3914.247,N,13506.435,E,1,12,1.0,0.0,M,0.0,M,,*68
$GPGSA,A,3,01,02,03,04,05,06,07,08,09,10,11,12,1.0,1.0,1.0*30
$GPRMC,170608.524,A,3914.247,N,13506.435,E,6934442.5,019.9,250625,000.0,W*74
$GPGGA,170609.524,6720.656,N,16303.060,E,1,12,1.0,0.0,M,0.0,M,,*63
$GPGSA,A,3,01,02,03,04,05,06,07,08,09,10,11,12,1.0,1.0,1.0*30
$GPRMC,170609.524,A,6720.656,N,16303.060,E,3321150.4,322.9,250625,000.0,W*78
$GPGGA,170610.524,7613.817,N,12052.305,E,1,12,1.0,0.0,M,0.0,M,,*63
$GPGSA,A,3,01,02,03,04,05,06,07,08,09,10,11,12,1.0,1.0,1.0*30
$GPRMC,170610.524,A,7613.817,N,12052.305,E,3555116.1,313.3,250625,000.0,W*72
$GPGGA,170611.524,7752.917,N,04147.138,E,1,12,1.0,0.0,M,0.0,M,,*69
$GPGSA,A,3,01,02,03,04,05,06,07,08,09,10,11,12,1.0,1.0,1.0*30
$GPRMC,170611.524,A,7752.917,N,04147.138,E,5020759.4,292.6,250625,000.0,W*7C
$GPGGA,170612.524,6828.086,N,04110.015,W,1,12,1.0,0.0,M,0.0,M,,*76
$GPGSA,A,3,01,02,03,04,05,06,07,08,09,10,11,12,1.0,1.0,1.0*30
$GPRMC,170612.524,A,6828.086,N,04110.015,W,7241036.8,257.9,250625,000.0,W*60
$GPGGA,170613.524,4709.907,N,09342.914,W,1,12,1.0,0.0,M,0.0,M,,*79
$GPGSA,A,3,01,02,03,04,05,06,07,08,09,10,11,12,1.0,1.0,1.0*30
$GPRMC,170613.524,A,4709.907,N,09342.914,W,23796388.7,126.6,250625,000.0,W*55
$GPGGA,170614.524,3914.004,S,01654.830,W,1,12,1.0,0.0,M,0.0,M,,*61
$GPGSA,A,3,01,02,03,04,05,06,07,08,09,10,11,12,1.0,1.0,1.0*30
$GPRMC,170614.524,A,3914.004,S,01654.830,W,19207716.3,121.8,250625,000.0,W*47
$GPGGA,170615.524,2454.577,S,09338.057,E,1,12,1.0,0.0,M,0.0,M,,*75
$GPGSA,A,3,01,02,03,04,05,06,07,08,09,10,11,12,1.0,1.0,1.0*30
$GPRMC,170615.524,A,2454.577,S,09338.057,E,18905219.1,336.5,250625,000.0,W*5A
$GPGGA,170616.524,5419.939,N,05034.578,E,1,12,1.0,0.0,M,0.0,M,,*68
$GPGSA,A,3,01,02,03,04,05,06,07,08,09,10,11,12,1.0,1.0,1.0*30
$GPRMC,170616.524,A,5419.939,N,05034.578,E,18905219.1,336.5,250625,000.0,W*47
